nose_x,nose_y,nose_z,left_eye_x,left_eye_y,left_eye_z,right_eye_x,right_eye_y,right_eye_z,forehead_x,forehead_y,forehead_z,chin_x,chin_y,chin_z,left_cheek_x,left_cheek_y,left_cheek_z,screen_height,right_cheek_x,right_cheek_y,right_cheek_z,center_x,center_y,center_z,nose_to_left_eye3,nose_to_right_eye3,nose_to_image_edge,nose_to_image_top,nose_to_image_bottom,left_eye_to_right_eye3,left_eye_to_image_edge,left_eye_to_image_top,left_eye_to_image_bottom,right_eye_to_image_edge,right_eye_to_image_top,right_eye_to_image_bottom,center_to_nose3,center_to_left_eye3,center_to_right_eye3,center_to_image_edge,center_to_image_top,center_to_image_bottom,nose_to_left_eye2,nose_to_right_eye2,left_eye_to_right_eye2,left_eye_to_center2,right_eye_to_center2,nose_to_center2,nose_to_left_eye3_times_right_eye,left_eye_to_right_eye3_times_nose_to_center2,left_eye_to_right_eye_ratio,nose_to_center_ratio,forehead_chin_y_diff,left_right_eye_y_diff,nose_center_screen_dist,left_eye_center_screen_dist,head_pitch,head_yaw,head_roll,left_eye_horizontal_gaze,left_eye_vertical_gaze,right_eye_horizontal_gaze,right_eye_vertical_gaze,target
360.6685256958008,247.05448150634768,-0.0437249206006526,385.2597427368164,215.9417724609375,0.0070112152025103,333.43746185302734,212.80468940734863,-0.0014521375996991,363.3811950683594,175.07882595062256,-0.0171181987971067,353.8332748413086,303.1575965881348,0.0141017446294426,300.4243850708008,223.84400367736816,0.0708762258291244,1080,409.1094970703125,230.1931571960449,0.0887838006019592,358.01629747663225,229.72493239811487,0.0169253898950825,39.65767509396082,43.75592398546786,1559.3314743041992,247.05448150634768,832.9455184936523,51.91714704904136,385.2597427368164,215.9417724609375,864.0582275390625,1586.5625381469729,212.80468940734863,867.1953105926514,17.531436486533803,30.53163778426113,29.8398076604438,1561.9837025233678,229.72493239811487,850.2750676018851,39.65764263925283,43.75590356550598,51.91714635920818,30.53163617460522,29.83980200133311,17.53133157581607,1735.2582168517315,910.1767193871449,1.3091320616933195,0.3376789595635183,-128.07877063751226,3.137083053588867,17.531331575816097,30.53163617460522,-3.1401595843202754,-0.00025006617620425996,-2.242525394282705,1.5687331485581733,-1.569165607632646,-1.5692439545009655,-1.5695620780901727,"(688, 72)"
369.9638748168945,262.76716232299805,-0.0425921529531478,393.3321380615234,228.58178615570068,0.005837129894644,341.40682220458984,226.55510902404785,-0.0085859932005405,369.8614501953125,187.9489803314209,-0.0276253595948219,361.5470123291016,315.3867244720459,0.0234207306057214,304.1227722167969,234.4686269760132,0.0608264431357383,1080,410.6800842285156,238.5098648071289,0.0908969268202781,364.4163077218192,242.0311791556222,0.0145968178154102,41.409153772630205,46.117450216234296,1550.0361251831057,262.76716232299805,817.232837677002,51.96485403678879,393.3321380615234,228.58178615570068,851.4182138442993,1578.5931777954102,226.55510902404785,853.4448909759521,21.46531549198462,31.890617633295086,27.72987031934554,1555.583692278181,242.0311791556222,837.9688208443778,41.409125452850326,46.11743767847416,51.96485203518128,31.890616430243224,27.729860628661555,21.46523930898645,1909.684587605664,1115.438027556222,1.254911939833363,0.41307217303195526,-127.437744140625,2.026677131652832,21.46523930898644,31.890616430243174,-3.1403977424753236,-0.000324404587305687,-2.2385511631118016,1.5687238915006516,-1.5693796610775872,-1.5696055125977781,-1.5698572430739202,"(114, 566)"
363.4657287597656,261.0158157348633,-0.0430081039667129,387.4534225463867,225.7300901412964,0.0055970405228435,335.31394958496094,223.9749383926392,-0.0073530594818294,363.9344024658203,185.26227951049805,-0.0268332231789827,356.04480743408203,313.0672073364258,0.0219883751124143,299.56104278564453,232.6191759109497,0.0629098340868949,1080,406.83555603027344,236.46985530853271,0.0901389420032501,358.94412994384766,239.73419461931505,0.0147771150139825,42.66725027846618,46.524730372897984,1556.5342712402344,261.0158157348633,818.9841842651367,52.16900771589541,387.4534225463867,225.7300901412964,854.2699098587036,1584.686050415039,223.9749383926392,856.0250616073608,21.75673671048563,31.763104243795468,28.403170075823592,1561.0558700561523,239.73419461931505,840.2658053806849,42.66722259375693,46.52471671046111,52.169006108570485,31.76310291719702,28.40316145452012,21.756659972474186,1985.0823149585954,1135.0233619761186,1.222694107271394,0.41704177929815867,-127.80492782592773,1.7551517486571981,21.756659972474157,31.763102917197035,-3.1404110686021705,-0.0002881492690677097,-2.2206789671835767,1.5687700762348111,-1.569418854377076,-1.5695297984806893,-1.5698337406999956,"(269, 418)"
352.5885772705078,266.1962413787842,-0.0431464239954948,378.3475112915039,229.70516681671145,0.0002431529137538,325.5623245239258,228.6399221420288,-0.0048273047432303,353.97613525390625,189.904260635376,-0.0304145887494087,348.7763214111328,317.51901626586914,0.0257703457027673,294.5940017700196,236.75256729125977,0.0711760967969894,1080,404.9544143676758,239.0336036682129,0.0818599686026573,351.25704084123885,243.9643968854632,0.0143801780754334,44.6668007277012,46.26982732289061,1567.4114227294922,266.1962413787842,813.8037586212158,52.7959346352973,378.3475112915039,229.70516681671145,850.2948331832886,1594.4376754760742,228.6399221420288,851.3600778579712,22.271758083896827,30.6140397730479,29.917525661671093,1568.742959158761,243.9643968854632,836.0356031145368,44.6667796532589,46.26981145558316,52.79593439181699,30.61403650893293,29.91751949593001,22.271683789908607,2066.7251567366993,1175.8543615900253,1.1819947243861453,0.4218445932496609,-127.61475563049314,1.0652446746826456,22.27168378990858,30.61403650893293,-3.140487163327835,-0.00011836790369979706,-2.1945686203555246,1.5691118806979965,-1.569607281062989,-1.569378479713614,-1.569776016318954,"(880, 491)"
350.1112747192383,265.4070568084717,-0.0430185496807098,376.2613296508789,229.2711067199707,-0.0008549284539185,323.3998489379883,228.55123043060303,-0.0043590948916971,351.67694091796875,189.85233306884768,-0.0311333071440458,346.81495666503906,316.81640625,0.0268508326262235,293.1184768676758,236.36472702026367,0.0726797729730606,1080,403.5870742797852,238.70912075042725,0.0801548287272453,349.2814145769392,243.56742586408345,0.0143313648794511,44.6053140275619,45.51761966333774,1569.8887252807615,265.4070568084717,814.5929431915283,52.86638229830451,376.2613296508789,229.2711067199707,850.7288932800293,1596.6001510620115,228.55123043060303,851.448769569397,21.855466974090444,30.533600984666517,29.922264529161037,1570.7185854230609,243.56742586408345,836.4325741359166,44.605294099764166,45.51760324602808,52.866382182170376,30.5335972081136,29.922258691813397,21.85539172933896,2030.3277188703064,1155.415494442436,1.185203413512657,0.4134080420320244,-126.96407318115232,0.7198762893676758,21.855391729338933,30.533597208113616,-3.1404847380172076,-8.137733199654715e-05,-2.197943578417848,1.5691839560064276,-1.5696295219374292,-1.569349027496364,-1.569747389777068,"(918, 564)"
347.6041030883789,267.94426918029785,-0.0431363843381404,374.3476486206055,231.3486385345459,-0.0019132301677018,320.91835021972656,230.59065341949463,-0.004306508693844,349.1400146484375,191.70023918151853,-0.032652661204338,345.2963638305664,319.006290435791,0.0284489765763282,292.0524978637696,238.03075790405276,0.0741701275110244,1080,402.6002883911133,239.8463487625122,0.0791428834199905,347.4227523803711,245.4953139168876,0.0142504575861884,45.32614156690391,45.90668278509956,1572.395896911621,267.94426918029785,812.0557308197021,53.4346748354716,374.3476486206055,231.3486385345459,848.6513614654541,1599.0816497802734,230.59065341949463,849.4093465805054,22.44976110669148,30.415106825154187,30.40777174994448,1572.577247619629,245.4953139168876,834.5046860831125,45.32612282111249,45.90666636309496,53.43467478187549,30.41510253016976,30.40776608755934,22.44968775947432,2080.772802784373,1199.591765585377,1.1788928243025234,0.42013324919194656,-127.30605125427249,0.7579851150512695,22.449687759474294,30.415102530169825,-3.1405101608506887,-6.015033772463797e-05,-2.19112732947644,1.5692549035953354,-1.5696698771065825,-1.5693412489325178,-1.5697568059649352,"(925, 649)"
344.5453643798828,266.0460090637207,-0.043334987014532,370.8551788330078,229.64733123779297,-0.0021698893979191,317.67051696777344,229.23279762268064,-0.003133479738608,345.93482971191406,190.10265827178955,-0.0316875576972961,342.8599166870117,317.8314971923828,0.0272109247744083,289.7854804992676,237.29877948760983,0.0761592537164688,1080,401.0566711425781,238.5369873046875,0.0781903117895126,344.6725654602051,244.0994371686663,0.0144620823474334,44.91182225871948,45.57928889515577,1575.4546356201172,266.0460090637207,813.9539909362793,53.18627733509725,370.8551788330078,229.64733123779297,850.352668762207,1602.3294830322266,229.23279762268064,850.7672023773193,21.94701662096363,29.90640208198467,30.82414481833517,1575.327434539795,244.0994371686663,835.9005628313337,44.91180339324562,45.57927116603428,53.18627732636844,29.906397457180507,30.8241397962359,21.94694051706586,2047.0489215380626,1167.2760649975473,1.1842375307404946,0.4126428374063859,-127.72883892059326,0.4145336151123331,21.94694051706586,29.906397457180507,-3.140481062223909,-2.678181241740249e-05,-2.201395402824452,1.5692316991120063,-1.5696653769218607,-1.5693004493793403,-1.569704287015658,"(1139, 410)"
318.948917388916,264.38804626464844,-0.0444332621991634,350.25474548339844,229.98613357543945,-0.0095741441473364,297.8049087524414,229.16500568389893,0.0063987700268626,323.7315368652344,188.7282657623291,-0.0301560685038566,324.0319061279297,319.50130462646484,0.0253499504178762,279.0160369873047,237.9380178451538,0.0954142063856124,1080,392.29591369628906,240.3391170501709,0.0622217431664466,326.58342361450195,244.29227011544364,0.0150315993066344,46.51395150398808,41.08204319246963,1601.051082611084,264.38804626464844,815.6119537353516,52.4562663487624,350.25474548339844,229.98613357543945,850.0138664245605,1622.1950912475586,229.16500568389893,850.8349943161011,21.49719610593932,27.65859047682565,32.51210730440983,1593.416576385498,244.29227011544364,835.7077298845563,46.5139384416891,41.082011744465966,52.45626391688904,27.65857953189462,32.51210615828691,21.497113860875807,1910.888164739276,1127.6583304157732,1.1277531444889901,0.409810138217769,-130.77303886413574,0.8211278915405273,21.497113860875807,27.65857953189462,-3.140320360525448,0.00028461834648344837,-2.111428400759653,1.5696828247485843,-1.5697830370270822,-1.5683922446187049,-1.5693531806014074,"(1875, 385)"
317.0807456970215,267.0175552368164,-0.0443423092365264,349.6819305419922,233.14528942108157,-0.0112940827384591,296.9499969482422,232.27064609527588,0.0056719202548265,321.63074493408203,191.52950763702395,-0.0333378501236438,322.89085388183594,321.67179107666016,0.0285279303789138,278.79642486572266,240.19615173339844,0.0957836806774139,1080,390.6259536743164,242.11174964904785,0.0607583299279212,325.37952150617326,246.84895583561487,0.014538231305778,47.01243172792727,40.15715679054113,1602.9192543029783,267.0175552368164,812.9824447631836,52.739189502004045,349.6819305419922,233.14528942108157,846.8547105789185,1623.0500030517578,232.27064609527588,847.7293539047241,21.809299591109387,27.899788985824085,31.949414080492,1594.6204784938268,246.84895583561487,833.1510441643851,47.01242011200602,40.15712564510752,52.73918677305364,27.899777026798297,31.949412850242943,21.809220108401615,1887.885592002986,1150.20059218791,1.1218134511544602,0.41352960064501704,-130.1422834396362,0.8746433258056925,21.809220108401618,27.899777026798287,-3.1403275120252414,0.00030075592769057604,-2.095896336969878,1.5697826147063647,-1.5698206549520015,-1.568311862495524,-1.5693569413592805,"(1690, 876)"
322.3151016235352,266.20147705078125,-0.0442794822156429,355.39344787597656,230.8705902099609,-0.0087935496121644,302.25385665893555,229.51875686645508,0.0043568867258727,326.93267822265625,189.3314552307129,-0.0314840860664844,325.89012145996094,321.4072608947754,0.0267602782696485,279.2782783508301,238.21443557739255,0.0922652781009674,1080,394.2303085327149,241.215934753418,0.0647112503647804,329.47054181780135,245.2514157976423,0.014790939366711,48.39886171189016,41.81002122873926,1597.6848983764648,266.20147705078125,813.7985229492188,53.15678490124109,355.39344787597656,230.8705902099609,849.1294097900391,1617.7461433410645,229.51875686645508,850.4812431335449,22.138402837573903,29.64465819186331,31.436676302550584,1590.5294581821986,245.2514157976423,834.7485842023577,48.39884870278687,41.80999294010039,53.1567832746004,29.64464881027077,31.436674570983023,22.138324030603453,2023.5574356209434,1176.8021285687644,1.0983062832058137,0.4164721381666029,-132.0758056640625,1.351833343505831,22.138324030603435,29.644648810270784,-3.140385329032188,0.00021675600268448468,-2.0712451637407154,1.5697235428437437,-1.5697919387411612,-1.5683719371950549,-1.5694704616410167,"(1115, 139)"
332.8428268432617,267.5415802001953,-0.0450595505535602,364.3704605102539,232.5417709350586,-0.0044401246123015,310.2000617980957,231.34856700897217,0.0004975285264663,335.76175689697266,191.71317100524905,-0.0311167147010564,333.70025634765625,321.8892002105713,0.0266332440078258,283.1370544433594,239.99876976013184,0.0852462276816368,1080,396.024169921875,242.5177001953125,0.0748610943555831,336.57665525163924,246.79296561649863,0.0152316721006562,47.106050388180215,42.69228370792664,1587.1571731567385,267.5415802001953,812.4584197998047,54.18353861297578,364.3704605102539,232.5417709350586,847.4582290649414,1609.7999382019043,231.34856700897217,848.6514329910278,21.081985598076987,31.23447690584377,30.565574551391453,1583.4233447483607,246.79296561649863,833.2070343835013,47.10603287516376,42.69225940086381,54.183538387995846,31.23447071109261,30.56557100009228,21.081899386108365,2011.0648675320776,1142.291909422073,1.1502455982621598,0.3890830321338479,-130.17602920532224,1.1932039260864258,21.081899386108393,31.234470711092598,-3.1403741620003442,6.431078527402874e-05,-2.1298352471227107,1.5695079521615372,-1.5696357659645,-1.5687843367611762,-1.5695376016708158,"(838, 495)"
337.2340774536133,266.13736152648926,-0.0444382689893245,367.4034881591797,231.01199626922607,-0.0024885325692594,313.3473777770996,229.59375858306885,5.499295730260201e-05,340.0009536743164,189.45241928100583,-0.028499748557806,336.3175582885742,321.13171577453613,0.0242541469633579,284.77270126342773,239.04208660125727,0.0821597278118133,1080,398.36185455322266,241.86306953430176,0.0769429355859756,339.6340015956334,245.4617725099836,0.0154264647431513,46.30320060814028,43.65788951807774,1582.7659225463867,266.13736152648926,813.8626384735107,54.07471196634879,367.4034881591797,231.01199626922607,848.9880037307739,1606.6526222229004,229.59375858306885,850.4062414169312,20.814494969930088,31.30400514883149,30.70473406567809,1580.3659984043666,245.4617725099836,834.5382274900164,46.30318160534216,43.65786684576244,54.07471190652856,31.30400002253609,30.70473021802777,20.814408881034797,2021.5000164835783,1125.533164991769,1.1678393626735302,0.38491938791636876,-131.6792964935303,1.4182376861572266,20.814408881034794,31.304000022536094,-3.140385163876017,1.537322357780346e-05,-2.1497326685683555,1.5694058551746817,-1.569602041236063,-1.5689336496108686,-1.5695787883920764,"(810, 119)"
341.3996124267578,269.9392318725586,-0.0448845140635967,370.9693908691406,234.81064796447757,-0.0022616903297603,316.7858695983887,233.2369565963745,-0.0026133854407817,344.20860290527344,193.36692810058597,-0.0318896919488906,339.22325134277344,322.8518486022949,0.0275086909532547,286.81751251220703,240.5690288543701,0.0792548209428787,1080,399.595947265625,243.95977020263672,0.0799388960003852,342.7143124171666,248.39063031332836,0.0150075894447841,45.91721922355274,44.19157310300462,1578.6003875732422,269.9392318725586,810.0607681274414,54.206369385375375,370.9693908691406,234.81064796447757,845.1893520355225,1603.214130401611,233.2369565963745,846.7630434036255,21.58875291181277,31.3490937213555,30.031954392368284,1577.2856875828334,248.39063031332836,831.6093696866717,45.91719944115384,44.191552885929305,54.20636938423446,31.34908896478982,30.03194922289482,21.58866983450444,2029.1541500043202,1170.2434115880583,1.1805235268327299,0.3982680651113356,-129.48492050170896,1.5736913681030558,21.588669834504405,31.34908896478982,-3.1404136056002288,-4.07347478983102e-05,-2.161539563137511,1.5693548958319488,-1.5695829900168152,-1.5690789493379365,-1.5696445968377184,"(646, 977)"
340.50098419189453,268.6238479614258,-0.0442897863686084,370.0019073486328,232.81262397766116,-0.0021643419750034,315.99828720092773,231.2000942230225,-0.001583807519637,343.5688781738281,191.4543056488037,-0.0302122607827186,338.8179397583008,322.1250343322754,0.0259010046720504,286.66711807250977,239.4449615478516,0.0798491016030311,1080,400.5441665649414,243.0206394195557,0.0786405727267265,342.29989733014787,246.9545010157994,0.0151629260508343,46.39773706624282,44.73165911862,1579.4990158081057,268.6238479614258,811.3761520385742,54.02768958232652,370.0019073486328,232.81262397766116,847.1873760223389,1604.0017127990725,231.2000942230225,848.7999057769775,21.74396974229688,31.10296361217496,30.659033077298385,1577.7001026698522,246.9545010157994,833.0454989842005,46.39771794296717,44.73163873259944,54.02768957920756,31.102958785717835,30.65902850355489,21.743888463862856,2075.447758322534,1174.772056238313,1.1644464009252498,0.4024581581662546,-130.67072868347168,1.6125297546386719,21.743888463862856,31.102958785717824,-3.1404359319899036,-2.3789396173066387e-05,-2.150494035202067,1.5693683912845897,-1.5696200077452414,-1.5690534192438759,-1.569655180970508,"(902, 422)"
339.7285842895508,267.5372886657715,-0.0443185679614543,369.2539596557617,231.6492748260498,-0.0027894384693354,315.4606246948242,230.026330947876,-0.0013361790915951,343.0586242675781,190.21479606628415,-0.0306762307882308,338.18187713623047,321.31988525390625,0.0263399947434663,286.8027877807617,238.21758270263672,0.0805414617061615,1080,400.2748489379883,242.00417518615723,0.077480524778366,341.8230438232422,245.85276194981165,0.0150345092739111,46.47256236258452,44.67670152653146,1580.2714157104492,267.5372886657715,812.4627113342285,53.81781150477308,369.2539596557617,231.6492748260498,848.3507251739502,1604.5393753051758,230.026330947876,849.973669052124,21.78552231233449,30.890038970172125,30.74822480340688,1578.1769561767578,245.85276194981165,834.1472380501883,46.47254380680823,44.67668085036114,53.81781148515167,30.890033827848736,30.748220445440552,21.785441460604986,2076.2407978463084,1172.4447820751075,1.1580553597265961,0.4047997643061944,-131.1050891876221,1.6229438781737997,21.785441460604982,30.890033827848736,-3.1404418068056037,-7.705432573768228e-06,-2.145029059526703,1.5693897705161048,-1.5696391406897905,-1.5690251707256395,-1.5696504650874679,"(914, 302)"
343.0307006835937,270.5738353729248,-0.0445368476212024,372.4653244018554,234.86037254333496,-0.0024564645718783,318.3976936340332,233.18352699279785,-0.0032641834113746,345.6858444213867,193.60227584838867,-0.03308642283082,340.659294128418,322.8607177734375,0.0282787233591079,288.26244354248047,240.52462577819824,0.078254759311676,1080,400.6849670410156,243.5888671875,0.079884372651577,344.1694668361119,248.45631735665455,0.0147248481267264,46.28012825689648,44.775237581698015,1576.9692993164062,270.5738353729248,809.4261646270752,54.09362724479037,372.4653244018554,234.86037254333496,845.139627456665,1601.6023063659668,233.18352699279785,846.8164730072021,22.14689376636692,31.392762954942125,29.95734873253893,1575.830533163888,248.45631735665455,831.5436826433454,46.280109126018175,44.77521855965296,54.09362723875999,31.3927582532609,29.957343331438725,22.14681447861428,2072.2037380139955,1198.0015270656872,1.1688302862131046,0.40941625682135446,-129.25844192504883,1.6768455505371094,22.14681447861431,31.39275825326084,-3.140455749508102,-5.019880502893228e-05,-2.1533380559458735,1.5693667058565108,-1.5696180494663667,-1.569120825890555,-1.5696924940308716,"(585, 980)"
339.776611328125,269.996337890625,-0.044630266726017,367.951545715332,234.05423641204837,-0.0029368379618972,314.09624099731445,233.13383102416992,-0.0020976606756448,342.4346923828125,193.7446975708008,-0.0319818183779716,338.5366439819336,322.71554946899414,0.027512963861227,286.2881088256836,240.6841278076172,0.0796726793050766,1080,399.1026306152344,243.4687900543213,0.078067660331726,341.1694962637765,248.25679574693956,0.0148009599652141,45.66906310361234,44.925801515717,1580.223388671875,269.996337890625,810.003662109375,53.863169170155416,367.951545715332,234.05423641204837,845.9457635879517,1605.9037590026855,233.13383102416992,846.8661689758301,21.78419962109573,30.314867295044277,31.01073198575825,1578.8305037362234,248.25679574693956,831.7432042530604,45.66904407166548,44.92578138226449,53.86316916361831,30.31486210568456,31.010727381490916,21.784118551390637,2051.7192644016422,1173.3616627562749,1.1794233057446253,0.4044343257677744,-128.97085189819333,0.9204053878784464,21.784118551390605,30.314862105684508,-3.1404359197695517,-4.186905624542748e-06,-2.1792723450914804,1.5693165221658103,-1.5696363108707425,-1.5691400980640737,-1.569642509792434,"(1281, 692)"
329.3146514892578,269.6454048156738,-0.0449164360761642,358.7146759033203,234.8148250579834,-0.0076365689747035,305.2245903015137,233.66077423095703,0.0015542939072474,333.0647277832031,193.78592491149905,-0.0337934233248233,331.5125274658203,322.8701591491699,0.0293138045817613,283.0480194091797,241.22323036193848,0.0885244756937027,1080,395.7225036621094,244.2001247406006,0.0692956671118736,333.80024228777205,248.6000633239746,0.0146202589884134,45.57995295733417,43.303889500558,1590.6853485107422,269.6454048156738,810.3545951843262,53.50253429018034,358.7146759033203,234.8148250579834,845.1851749420166,1614.7754096984863,233.66077423095703,846.339225769043,21.51814276214403,28.473887894000367,32.24516112169312,1586.199757712228,248.6000633239746,831.3999366760254,45.57993771172033,43.30386456596908,53.50253350076015,28.47387919539081,32.24515847448274,21.51806039851065,1973.7892463050307,1151.2707643294877,1.1738169761186996,0.40218760965466815,-129.08423423767087,1.1540508270263672,21.51806039851065,28.47387919539081,-3.1403990372753987,0.00014607123214672565,-2.160726261954819,1.5695283058369567,-1.5697260071756118,-1.5688672875957406,-1.5695049225649562,"(1802, 917)"
329.6361541748047,268.6296844482422,-0.0446258410811424,359.78179931640625,233.7136745452881,-0.0072132488712668,306.21959686279297,232.44104862213132,0.0013957773335278,333.57933044433594,192.5049877166748,-0.0333195254206657,331.2147903442383,322.82904624938965,0.0290042348206043,283.2804107666016,240.09072303771973,0.087532103061676,1080,395.7898712158203,243.37506294250488,0.0693796798586845,334.21456473214283,247.65488965170724,0.0145933113859168,46.129047987668365,43.103997927001664,1590.3638458251953,268.6296844482422,811.3703155517578,53.5773196654842,359.78179931640625,233.7136745452881,846.2863254547119,1613.780403137207,232.44104862213132,847.5589513778687,21.46875326832729,29.1211510496456,31.86187940241509,1585.785435267857,247.65488965170724,832.3451103482928,46.12903281607533,43.10397335863136,53.57731897381715,29.121142885027798,31.86187666913451,21.468671593470685,1988.3463888350175,1150.233880756679,1.161465722534524,0.4007043973171608,-130.32405853271484,1.2726259231567667,21.468671593470685,29.121142885027794,-3.140406709655368,0.00013255163423593722,-2.145108581693591,1.5695552661764849,-1.5697248246961215,-1.5688309841295547,-1.5695246128284952,"(1529, 636)"
347.4406433105469,269.60180282592773,-0.0437334142625331,377.07313537597656,232.8098201751709,-0.0003938379813916,322.9843139648437,232.0547389984131,-0.0040135560557246,350.0033187866211,191.9948959350586,-0.0309276990592479,343.74122619628906,321.92673683166504,0.0257316008210182,290.3068161010742,239.34256553649905,0.0740693062543869,1080,402.3611450195313,242.9721736907959,0.0817900374531745,347.7015141078404,247.24324771336143,0.0146460624528117,47.24125793943486,44.80954836639279,1572.5593566894531,269.60180282592773,810.3981971740723,54.09409175068264,377.07313537597656,232.8098201751709,847.1901798248291,1597.0156860351562,232.0547389984131,847.9452610015869,22.36015314030398,32.72638373877613,29.01087947778177,1572.2984858921595,247.24324771336143,832.7567522866385,47.241238059362345,44.80953076224922,54.09409162957553,32.726380282870046,29.01087347690546,22.360076929530997,2116.859432526344,1209.548052978372,1.1450601160839577,0.4133551756268663,-129.93184089660645,0.7550811767578125,22.360076929531022,32.72638028287003,-3.140481088597306,-8.243916841610597e-05,-2.1481209177244778,1.5693337584330191,-1.569618364828383,-1.5691722145774913,-1.5697384586331506,"(261, 525)"
333.8106918334961,269.07371520996094,-0.0445408187806606,363.6967468261719,233.95102500915527,-0.0059372005052864,309.4328689575196,232.82804489135745,-8.989978232420981e-05,337.5136184692383,193.31625938415527,-0.0333204567432403,334.12158966064453,322.8383445739746,0.0289477463811635,284.7802734375,240.45681953430176,0.0842190682888031,1080,397.6465606689453,243.9670372009277,0.0720882192254066,337.28604997907365,248.0616065434047,0.0144809511548373,46.11703741792566,43.68098946797774,1586.189308166504,269.07371520996094,810.9262847900391,54.27549686442228,363.6967468261719,233.95102500915527,846.0489749908447,1610.5671310424805,232.82804489135745,847.1719551086426,21.297659693603094,29.94384471114126,31.746831431433996,1582.7139500209264,248.0616065434047,831.9383934565953,46.11702126077758,43.68096685076216,54.27549654944657,29.943837749761222,31.74682808764032,21.29757791053245,2014.437825746746,1155.9366231028932,1.1769074540389035,0.3923975867002554,-129.52208518981934,1.1229801177978231,21.29757791053245,29.943837749761222,-3.1404224619862093,8.353982947856907e-05,-2.162876100961348,1.5695046341705212,-1.5696972195650745,-1.5689729125400464,-1.569569948683447,"(1498, 725)"
332.6414489746094,270.77359199523926,-0.0447540916502475,362.7020263671875,235.3324556350708,-0.0070568122901022,308.3357238769531,234.55487251281735,-0.0006694839685223,336.0158157348633,194.88269805908203,-0.0355084352195262,333.5360336303711,323.9530563354492,0.0311942659318447,284.1024780273437,241.6676902770996,0.0845430493354797,1080,396.7905044555664,244.5607566833496,0.0711217895150184,336.3034330095564,249.38930307115828,0.0141243259505634,46.472721899627366,43.61841190279441,1587.3585510253906,270.77359199523926,809.2264080047607,54.37186333729644,362.7020263671875,235.3324556350708,844.6675443649292,1611.6642761230469,234.55487251281735,845.4451274871826,21.695654093132067,29.907877553307287,31.65838440244464,1583.6965669904437,249.38930307115828,830.6106969288417,46.47270661017318,43.618389624895634,54.37186296212112,29.907870052930964,31.658380945906536,21.69557419984037,2027.066326061961,1179.6287954178952,1.1699734686295127,0.39902201024510714,-129.0703582763672,0.7775831222534464,21.69557419984037,29.907870052930964,-3.1404432880831874,0.00010104783312137351,-2.1618493667562726,1.5695422836969675,-1.569732668317343,-1.5689825747194934,-1.5695791499719451,"(1463, 989)"
332.7145767211914,270.9964084625244,-0.0449075512588024,362.5767135620117,235.6303310394287,-0.0064492663368582,308.5357856750488,234.47957038879397,-0.0006634211167693,336.1248016357422,194.7760391235352,-0.0347997322678566,333.40450286865234,324.1445732116699,0.0305102933198213,283.3969497680664,241.8430995941162,0.0845063030719757,1080,396.3413238525391,244.83369827270508,0.0723267942667007,336.15637915475025,249.5291028703962,0.0143604885254587,46.28723504418855,43.79606554131464,1587.2854232788086,270.9964084625244,809.0035915374756,54.05317909646922,362.5767135620117,235.6303310394287,844.3696689605713,1611.4642143249512,234.47957038879397,845.520429611206,21.741543783227787,29.853146595404592,31.45450425302531,1583.8436208452497,249.5291028703962,830.4708971296038,46.28721906743024,43.79604319291956,54.053178786811166,29.853139342468143,31.45450066501973,21.74146299993335,2027.1987797215174,1175.1951933546563,1.1677769771103648,0.402223501764737,-129.3685340881347,1.1507606506347372,21.74146299993335,29.853139342468143,-3.140435621590504,8.242594848236079e-05,-2.1556496214942538,1.5695084663894328,-1.569708892944014,-1.5689664552899567,-1.5695847183746208,"(1432, 946)"
332.37701416015625,268.79533767700195,-0.044388934969902,362.6517105102539,233.13660621643064,-0.006213687825948,308.74799728393555,232.05020427703855,0.0002858761581592,335.9835433959961,192.33635902404785,-0.0331341661512851,333.2375717163086,323.1449890136719,0.0289637017995119,283.865909576416,239.8641586303711,0.0849716588854789,1080,397.40699768066406,243.13814163208008,0.0712997242808342,336.3243920462472,247.4951137815203,0.0145405960252641,46.777172058785766,43.686808798040815,1587.6229858398438,268.79533767700195,811.204662322998,53.91466044596233,362.6517105102539,233.13660621643064,846.8633937835693,1611.2520027160645,232.05020427703855,847.9497957229614,21.662982316912668,29.98824549289707,31.60700841404513,1583.675607953753,247.4951137815203,832.5048862184797,46.77715648121156,43.686785955456,53.91466005419198,29.98823831107729,31.607005199614864,21.66290216414337,2043.5453718452309,1167.9480144538925,1.1525846165381823,0.4017997696166147,-130.80862998962402,1.0864019393920898,21.66290216414337,29.9882383110773,-3.1404394433558336,9.733485458853252e-05,-2.1422713896668792,1.5695353652820443,-1.5697257549883352,-1.5689056532163108,-1.5695805252728443,"(1313, 367)"
326.8384552001953,266.79697036743164,-0.0441785231232643,357.1971893310547,230.7241058349609,-0.0084783071652054,304.2999839782715,229.8667860031128,0.0037292202468961,331.4500427246094,189.76471424102783,-0.0318362191319465,329.7653579711914,321.3072395324707,0.027324816212058,283.26908111572266,237.9788875579834,0.0908306688070297,1080,396.7182922363281,241.10727310180664,0.0654200688004493,332.791200365339,245.36371094839916,0.0146873892351452,47.14769949967452,43.26457554808488,1593.1615447998047,266.79697036743164,813.2030296325684,52.90415371643631,357.1971893310547,230.7241058349609,849.2758941650391,1615.7000160217283,229.8667860031128,850.1332139968872,22.244622934999946,28.459987208737992,32.43307284325695,1587.2087996346609,245.36371094839916,834.6362890516009,47.14768598357918,43.26454902346804,52.90415230800505,28.459977780596397,32.43307099203749,22.244545046475725,2039.825206922072,1176.8288304909436,1.122093825508141,0.420468701966548,-131.54252529144287,0.8573198318481161,22.244545046475697,28.459977780596425,-3.1404246936826765,0.00021184869559500208,-2.1187545538830754,1.5696203818642482,-1.569806657558331,-1.5686707313742105,-1.5694990758517782,"(1805, 121)"
329.9783706665039,267.4856472015381,-0.0443506389856338,360.6997680664063,232.35453128814697,-0.0067872749641537,307.1888732910156,231.07508182525635,0.0021433937363326,334.1031646728516,191.16774559021,-0.0315328240394592,331.759033203125,321.8106937408447,0.027438199147582,283.5919380187988,239.12843227386475,0.0880754888057708,1080,396.8462371826172,242.64226913452148,0.06922048330307,334.88105501447404,246.52348586491172,0.0148866895719298,46.6690579991622,42.9545413587778,1590.021629333496,267.4856472015381,812.5143527984619,53.52618920068813,360.6997680664063,232.35453128814697,847.645468711853,1612.8111267089844,231.07508182525635,848.9249181747437,21.527936054802797,29.451072768528768,31.709782061204308,1585.118944985526,246.52348586491172,833.4765141350882,46.66904288200958,42.95451619617981,53.52618845566177,29.451064793253877,31.709779500612832,21.52785455447392,2004.6479820002128,1152.3040159676666,1.1469307508272724,0.40219284903377106,-130.64294815063474,1.279449462890625,21.527854554473947,29.451064793253913,-3.1404023627946014,0.00013843434685267096,-2.1300450283643397,1.5695736172672927,-1.5697270937594532,-1.5687561778855128,-1.5695193895386113,"(1344, 279)"
340.9851837158203,270.46085357666016,-0.0440048798918724,370.7306671142578,234.21064853668213,-0.0023262375034391,316.5605926513672,233.15112590789795,-0.0021321435924619,343.4312438964844,193.5127544403076,-0.0313615649938583,339.726676940918,322.90157318115234,0.0264495965093374,287.18618392944336,240.63855171203613,0.0788271576166153,1080,399.6676635742188,243.19610595703125,0.0784486010670661,342.61260168892994,248.29594475882396,0.0148429327444838,46.89214097432959,44.59347688517917,1579.0148162841797,270.46085357666016,809.5391464233398,54.18043517316646,370.7306671142578,234.21064853668213,845.7893514633179,1603.4394073486328,233.15112590789795,846.848874092102,22.224651520940576,31.448711701895004,30.134249635154863,1577.38739831107,248.29594475882396,831.7040552411761,46.892122451933965,44.59345722617796,54.1804351728188,31.44870701520972,30.1342448539965,22.22457361035739,2091.0836046353297,1204.1370697472346,1.1554265276256301,0.4101954780793198,-129.38881874084475,1.0595226287841797,22.22457361035736,31.44870701520973,-3.140458172674756,-1.8606475390141048e-05,-2.1504293296122188,1.5693951522180913,-1.5696465781527258,-1.5690819605167936,-1.5696740264905156,"(761, 551)"
356.83719635009766,265.61845779418945,-0.0442851223051548,381.7243194580078,228.8227128982544,0.0050107482820749,328.8315963745117,228.82378578186035,-0.0069420435465872,355.6841278076172,188.3523416519165,-0.0276347324252128,351.3200378417969,320.07837295532227,0.0229301247745752,292.0352554321289,238.086519241333,0.0660292953252792,1080,401.9927597045898,239.825177192688,0.0912689045071601,352.63218470982144,244.22962393079484,0.0151967392303049,44.42182086675268,46.2402737123489,1563.1628036499023,265.61845779418945,814.3815422058105,52.89272444493394,381.7243194580078,228.8227128982544,851.1772871017456,1591.1684036254885,228.82378578186035,851.1762142181396,21.79834569463027,32.919983528635925,28.351513968459415,1567.3678152901784,244.22962393079484,835.7703760692052,44.42179351438893,46.2402586334399,52.89272309437736,32.9199819527783,28.35150532472741,21.798264539425023,2054.0771556795758,1152.9695996615826,1.190692130713623,0.41212209518339354,-131.72603130340576,-0.0010728836059570312,21.798264539425023,32.9199819527783,-3.1404057660046343,-0.0002259575442069704,-2.221383890666685,1.568815551198491,-1.5694566109871602,-1.5694629128827071,-1.5697814226282132,"(71, 117)"
341.8632125854492,268.9760971069336,-0.04416099563241,371.1940002441406,232.96560287475583,-0.0020397834014147,317.00910568237305,232.111930847168,-0.0017794274026528,344.5313262939453,192.0174551010132,-0.0304246637970209,340.4804229736328,321.8601894378662,0.025526475161314,288.2263946533203,239.9464702606201,0.0792230740189552,1080,401.2516784667969,242.6356315612793,0.0786980092525482,343.5080201285226,247.2161967413766,0.0150060983141884,46.44408007186136,44.46004026285296,1578.1367874145508,268.9760971069336,811.0239028930664,54.19161886000769,371.1940002441406,232.96560287475583,847.0343971252441,1602.990894317627,232.111930847168,847.888069152832,21.822056651876903,31.13829171736702,30.5013376228188,1576.4919798714773,247.2161967413766,832.7838032586234,46.44406097150582,44.46002006271681,54.19161885938227,31.138287051695123,30.501333004105053,21.82197644056832,2064.905669966123,1182.5682300393455,1.16681409359423,0.4026816853381665,-129.842734336853,0.8536720275878338,21.82197644056832,31.138287051695137,-3.140433917102272,-1.3450702216172278e-05,-2.164001531451948,1.5693602527362833,-1.5696266346282293,-1.5690911145610913,-1.5696466588691746,"(931, 671)"
335.52734375,264.2334651947021,-0.0447660461068153,365.9041213989258,230.03820419311523,-0.0037699230015277,312.236328125,228.65458488464355,0.0019701144192367,339.0303039550781,188.83877277374268,-0.027860390022397,335.9359741210937,320.4275321960449,0.0245288033038377,286.4113998413086,237.88195610046387,0.0860234647989273,1080,399.221076965332,241.43317222595212,0.0738703683018684,339.18093545096264,244.50109822409493,0.0157137702418757,45.73910991679918,42.52446727744123,1584.47265625,264.2334651947021,815.7665348052979,53.68562629076463,365.9041213989258,230.03820419311523,849.9617958068848,1607.763671875,228.65458488464355,851.3454151153564,20.067852311302254,30.38592355968575,31.25898331449385,1580.8190645490374,244.50109822409493,835.4989017759051,45.73909154431172,42.52444159494007,53.68562598390382,30.38591731313641,31.25898029315304,20.067761175080136,1945.0312829562145,1077.350326937668,1.1737354454659463,0.3738013100262412,-131.58875942230225,1.3836193084716797,20.06776117508008,30.38591731313641,-3.140327729124955,7.434364506729517e-05,-2.150419757343553,1.5694467399924652,-1.5695974441935363,-1.5687897119460317,-1.5694827347639697,"(1139, 241)"
334.79225158691406,263.58630180358887,-0.04508912935853,365.32711029052734,229.94579315185547,-0.0044877668842673,311.39570236206055,228.82992267608645,0.0017096853116527,338.13365936279297,188.70100021362305,-0.0293070375919342,335.52101135253906,319.7158527374268,0.0255612377077341,286.1296844482422,237.83185958862305,0.0865623727440834,1080,398.79810333251953,241.0825538635254,0.0736438706517219,338.5853603907994,244.241897719247,0.0155133189400658,45.43196085210952,41.89757267210996,1585.207748413086,263.58630180358887,816.4136981964111,53.942951036013945,365.32711029052734,229.94579315185547,850.0542068481445,1608.6042976379397,228.82992267608645,851.1700773239136,19.71287184641433,30.323261591471766,31.253906459690256,1581.4146396092003,244.241897719247,835.7581022807531,45.431942709914765,41.89754653539609,53.94295068000437,30.323254995158297,31.25390341142634,19.71277869242221,1903.4888814377132,1063.3654557891102,1.1873346021375437,0.36543746049204384,-131.01485252380377,1.1158704757690145,19.71277869242221,30.323254995158297,-3.1403056019660838,8.82837055846778e-05,-2.163279764918047,1.569466655060036,-1.5695894085767277,-1.5687960851435785,-1.5694498463051925,"(1197, 497)"
343.8445281982422,268.0447196960449,-0.0442596487700939,373.3116149902344,233.29636573791504,-0.0008947771275416,319.37374114990234,231.43165111541748,-0.0017092046327888,347.3683166503906,191.66353225708008,-0.0289129391312599,341.3387680053711,321.2889289855957,0.0242279861122369,289.53311920166016,238.9685297012329,0.0789788961410522,1080,401.94091796875,243.42533111572263,0.0807125270366668,345.2444294520787,246.8741512298584,0.0154489770897531,45.56050029705966,44.03791571129612,1576.1554718017578,268.0447196960449,811.9552803039551,53.97009723636064,373.3116149902344,233.29636573791504,846.703634262085,1600.6262588500977,231.43165111541748,848.5683488845825,21.21688614811293,31.1788939832186,30.129115775542964,1574.7555705479213,246.8741512298584,833.1258487701416,45.56047965952818,44.03789515468383,53.97009723021565,31.178889699578512,30.1291108898499,21.216802131847867,2006.3894718463953,1145.072874100453,1.1845806134406642,0.39312136325631986,-129.62539672851562,1.8647146224975586,21.216802131847867,31.178889699578512,-3.1403926696528717,-5.658461773217557e-05,-2.159971766869451,1.5693246902994618,-1.5695483583535055,-1.569057502409341,-1.5696341618458702,"(815, 681)"
353.8931655883789,270.6173515319824,-0.0438573956489563,380.085563659668,234.4046258926392,0.0018972129328176,326.72882080078125,232.9793930053711,-0.0061343335546553,355.21141052246094,193.5691738128662,-0.0306233428418636,348.18016052246094,321.91606521606445,0.0260597001761198,293.0227470397949,240.46940803527832,0.0695192515850067,1080,403.6079025268554,243.83554458618164,0.0864143893122673,351.5328243800572,248.2559374400548,0.0147536402801051,44.692340601488105,46.4167962360589,1566.106834411621,270.6173515319824,809.3826484680176,53.37577504634521,380.085563659668,234.4046258926392,845.5953741073608,1593.2711791992188,232.9793930053711,847.0206069946289,22.48571737934761,31.735121194675155,29.13094299422952,1568.4671756199427,248.2559374400548,831.7440625599452,44.69231718041945,46.416780907236536,53.37577444208477,31.735118590498384,29.130935505499973,22.485640991760995,2074.4752670118155,1200.1885153491135,1.1942933036188965,0.42127045011585545,-128.34689140319824,1.4252328872680948,22.485640991760967,31.735118590498434,-3.140459917357164,-0.00018078228353256477,-2.1959560728002336,1.5690494626125242,-1.5695328321690123,-1.5694076300256616,-1.5697940660204086,"(406, 885)"
353.34362030029297,269.61204528808594,-0.0435559973120689,379.5857620239258,233.25520992279053,0.001735811587423,326.1822509765625,231.72386169433597,-0.0061323074623942,354.4831848144531,192.03320503234863,-0.030555298551917,348.2990264892578,321.65574073791504,0.026274811476469,292.60040283203125,239.4578504562378,0.0693103447556495,1080,403.46851348876953,242.5966644287109,0.0858578383922576,351.13753727504184,247.19065393720356,0.0147050289836313,44.83828198504464,46.61819215828039,1566.656379699707,269.61204528808594,810.3879547119141,53.42546285704917,379.5857620239258,233.25520992279053,846.7447900772095,1593.8177490234375,231.72386169433597,848.2761383056641,22.52973561253905,31.6780406503062,29.35963914488205,1568.8624627249585,247.19065393720356,832.8093460627965,44.838259110077246,46.61817713696872,53.42546227766909,31.67803799546071,29.35963175046819,22.529660282031003,2090.2796456259725,1203.6575285795832,1.191514227947592,0.42170259011677325,-129.6225357055664,1.5313482284545614,22.529660282030978,31.67803799546072,-3.140476345411231,-0.00017934345614180035,-2.1927630825523616,1.5690704095887147,-1.5695505697036976,-1.5694184998627627,-1.5698085867100096,"(464, 600)"
344.163818359375,267.1091938018799,-0.0444100834429264,372.938232421875,231.6556978225708,-0.0008339083287864,318.90403747558594,229.9658203125,-0.0015258118510246,347.2725296020508,190.47592163085935,-0.0286295358091592,341.9160842895508,320.33002853393555,0.0240015536546707,289.89973068237305,238.07930946350095,0.0791084319353103,1080,402.44140625,241.82799339294436,0.0803670436143875,345.3622627258301,245.6348521368844,0.0154396699674959,45.66091524135407,44.91868835495259,1575.836181640625,267.1091938018799,812.8908061981201,54.06061329629311,372.938232421875,231.6556978225708,848.3443021774292,1601.095962524414,229.9658203125,850.0341796875,21.507840450343497,30.916842090516475,30.74990291909555,1574.63773727417,245.6348521368844,834.3651478631156,45.66089444804036,44.91866788395003,54.060613291865394,30.916837807586024,30.74989823895728,21.507757178386797,2051.0284217282883,1162.722543691341,1.1839579029671443,0.39784515728773634,-129.8541069030762,1.6898775100708008,21.507757178386793,30.916837807586024,-3.140404107030229,-4.997577296684498e-05,-2.1680150855867333,1.5692819209165845,-1.5695672194257393,-1.569098599067657,-1.569641766815332,"(891, 495)"
339.45125579833984,269.15937423706055,-0.0446949452161788,368.5026168823242,234.12707805633545,-0.0040095415897667,314.8453140258789,232.845196723938,-0.0019565415568649,342.2492980957031,193.70830535888672,-0.0331590138375759,338.6061477661133,322.4072742462158,0.028904054313898,287.03487396240234,240.5380153656006,0.0807797163724899,1080,399.4605255126953,243.53110313415527,0.0765722393989563,341.4500045776367,248.04519244602747,0.0146337096978511,45.5109328824202,43.8654041989295,1580.5487442016602,269.15937423706055,810.8406257629395,53.67261288397885,368.5026168823242,234.12707805633545,845.8729219436646,1605.154685974121,232.845196723938,847.154803276062,21.208658356360672,30.42298618221262,30.64065444051035,1578.5499954223633,248.04519244602747,831.9548075539725,45.51091469665368,43.86538337874541,53.67261284471479,30.422980469905998,30.64064994914974,21.20857537383248,1996.3554663577136,1138.3196558603977,1.1793342322668359,0.39514698992217856,-128.6989688873291,1.281881332397461,21.208575373832478,30.422980469905994,-3.1404227343909334,1.031176296836198e-05,-2.1663197311778313,1.569395863081336,-1.569634958863868,-1.5690594145858103,-1.5696194205050205,"(1092, 960)"
351.52381896972656,266.3456726074219,-0.0438295491039752,379.1684341430664,230.1787519454956,0.002084115287289,325.6275177001953,229.3101167678833,-0.0043504415079951,353.0786895751953,189.22386646270752,-0.027953116223216,347.2373580932617,319.99162673950195,0.0234905388206243,292.1563911437988,237.6156949996948,0.0713380724191665,1080,403.34850311279297,240.9184169769287,0.0849917083978653,350.30581610543385,244.7977352142334,0.0151101897271083,45.52222541037179,45.19128648739536,1568.4761810302734,266.3456726074219,813.6543273925781,53.54796263181085,379.1684341430664,230.1787519454956,849.8212480545044,1594.3724822998047,229.3101167678833,850.6898832321167,21.58241438697276,32.35375652805286,29.13563309821653,1569.694183894566,244.7977352142334,835.2022647857666,45.52220225613125,45.19126924291799,53.54796224520864,32.353753905812965,29.13562659902345,21.58233390711476,2057.2079300639,1155.6900095654453,1.1763034514691357,0.40304670459724373,-130.76776027679443,0.8686351776123047,21.58233390711476,32.353753905812965,-3.1404294466671105,-0.0001390516844465146,-2.18100404828888,1.5691354745136543,-1.569526834151178,-1.5692718203953013,-1.5697303486625978,"(324, 309)"
344.1569900512696,263.27656745910645,-0.044735137373209,372.6950073242188,228.7409734725952,0.0008337866747751,318.6857032775879,227.12841510772705,0.0001003796496661,347.4771881103516,187.3307991027832,-0.0244877189397811,341.9676208496094,318.72344970703125,0.0202631000429391,289.9807929992676,236.52823448181152,0.080254890024662,1080,402.9777526855469,240.52413940429688,0.0817506983876228,345.42015075683594,243.17893981933597,0.0162828569238107,44.80097943571253,44.22077994053533,1575.8430099487305,263.27656745910645,816.7234325408936,54.03337180501888,372.6950073242188,228.7409734725952,851.2590265274048,1601.314296722412,227.12841510772705,852.871584892273,20.137376564750998,30.86053971781269,31.182531767180333,1574.579849243164,243.17893981933597,836.8210601806641,44.80095626069045,44.22075721112954,54.03337180004153,30.86053585083906,31.182527568153287,20.137284119636256,1981.1342527470924,1088.085359979608,1.2060754122976327,0.3726822835613411,-131.39265060424805,1.6125583648681356,20.137284119636224,30.86053585083914,-3.140315898345819,-5.169939260190718e-05,-2.184626878691591,1.569199548543517,-1.5694768504997925,-1.569036091000189,-1.5695560007722755,"(1043, 185)"
346.65660858154297,266.1174488067627,-0.0441583804786205,374.9565887451172,231.2953948974609,-0.0005456384387798,321.2405014038086,229.44036483764648,-0.002453030552715,349.6706771850586,189.62472438812256,-0.0288169160485267,343.5382843017578,320.23223876953125,0.0246577039361,291.1344146728516,237.79958724975583,0.0769606456160545,1080,403.4973907470703,242.0225143432617,0.080907218158245,347.242066519601,245.2188961846488,0.0152216574559653,44.87166386253445,44.62273783491881,1573.343391418457,266.1174488067627,813.8825511932373,53.74810861249029,374.9565887451172,231.2953948974609,848.7046051025391,1598.7594985961914,229.44036483764648,850.5596351623535,20.906835931948283,31.01546193256797,30.414531926921438,1572.757933480399,245.2188961846488,834.7811038153512,44.87164266795915,44.62271834556566,53.7481085786459,31.01545792476637,30.41452679130693,20.90675160555792,2002.296492754475,1123.6983560298827,1.1978182221850924,0.3889764357388965,-130.6075143814087,1.8550300598144247,20.906751605557922,31.01545792476638,-3.1404024697754833,-7.66105125973736e-05,-2.176788356120794,1.5692552406435363,-1.5695438814523701,-1.569155425920387,-1.5696592317088691,"(771, 493)"
346.9617462158203,272.8359603881836,-0.0437659807503223,375.9278869628906,236.0490560531616,-0.0035497911740094,321.7372131347656,234.28879737854004,-0.0057234405539929,350.08079528808594,194.5810604095459,-0.0367959551513195,343.3649444580078,324.6594429016113,0.0323607847094535,291.06714248657227,240.325870513916,0.0745466351509094,1080,403.4743118286133,244.0908908843994,0.0787954628467559,347.516291482108,249.54729693276545,0.0136953878682106,46.82216630694322,46.06693274447648,1573.0382537841797,272.8359603881836,807.1640396118164,54.21925529987077,375.9278869628906,236.0490560531616,843.9509439468384,1598.2627868652344,234.28879737854004,845.71120262146,23.29533575205508,31.45507211887513,29.95635268479141,1572.483708517892,249.54729693276545,830.4527030672346,46.82214903582647,46.06691703651608,54.21925525629997,31.455067391557684,29.95634639078524,23.295264883492784,2156.953586212646,1263.0519139962096,1.1579823830578897,0.42964921702006736,-130.07838249206543,1.7602586746215536,23.295264883492752,31.45506739155771,-3.1405574936180516,-7.37358833233618e-05,-2.1502452102069185,1.5694079415043933,-1.5697031069580527,-1.5692881715703346,-1.5698094181646607,"(621, 790)"
358.4625244140625,270.5708599090576,-0.0442089326679706,384.2368316650391,234.29414749145508,0.0014066618168726,330.2806854248047,233.0782127380371,-0.0101298401132225,359.4179916381836,193.11006546020508,-0.0361268557608127,350.4727935791016,322.6362991333008,0.0304717849940061,294.07222747802734,239.6490383148193,0.0642501190304756,1080,404.4131088256836,243.08489799499512,0.0883179455995559,354.47945186070035,248.06050300598145,0.0134258404141291,44.50075121702601,46.90326003692743,1561.5374755859375,270.5708599090576,809.4291400909424,53.96984665081979,384.2368316650391,234.29414749145508,845.7058525085449,1589.7193145751953,233.0782127380371,846.9217872619629,22.86010403817717,32.78741132557815,28.461375117201477,1565.5205481392995,248.06050300598145,831.9394969940186,44.50072783783633,46.90324765628798,53.96984541780834,32.78740912258844,28.461365369426147,22.86003138381957,2087.2303061707853,1233.75238821767,1.2127847968176082,0.4235703557954944,-129.5262336730957,1.2159347534179688,22.860031383819575,32.7874091225885,-3.140504553442856,-0.00023833342957350925,-2.2153609631836084,1.5690265198932143,-1.5695388928268406,-1.5695870701542483,-1.5698873730202019,"(301, 738)"
339.1938781738281,263.99356842041016,-0.0450254902243614,368.7420654296875,229.3376398086548,-0.0035334276035428,314.84447479248047,227.28110790252688,-0.0002413879701634,344.43225860595703,187.9696798324585,-0.0307415928691625,337.3140335083008,319.3271827697754,0.0262934621423482,288.5627746582031,235.6124496459961,0.0833982750773429,1080,401.6862106323242,241.7569255828857,0.0764593034982681,342.1108136858259,243.6112219946725,0.0152298774358184,45.54262266977688,44.05337907494202,1580.806121826172,263.99356842041016,816.0064315795898,53.93681127777572,368.7420654296875,229.3376398086548,850.6623601913452,1605.1555252075195,227.28110790252688,852.7188920974731,20.590099303045303,30.21521255804017,31.78248105905688,1577.889186314174,243.6112219946725,836.3887780053275,45.54260376889331,44.05335631146309,53.93681117731071,30.21520673213957,31.7824772934593,20.59001113646942,2006.306420538729,1110.5595448750514,1.1843147423835556,0.38174313295977247,-131.3575029373169,2.0565319061279297,20.59001113646942,30.21520673213956,-3.1403826831027857,1.4911518477194436e-05,-2.156427240431025,1.5693921108614495,-1.5695990700928641,-1.568957100960285,-1.5695764663058789,"(1410, 122)"
343.6136245727539,267.3293209075928,-0.0446504168212413,372.7083587646485,232.3872184753418,-0.0014517264207825,318.77052307128906,230.83092212677,-0.0013489772100001,346.65809631347656,190.997257232666,-0.0290526747703552,341.6781234741211,320.1405715942383,0.0244976039975881,289.79835510253906,239.07171249389648,0.0802968218922615,1080,402.6300811767578,242.57354736328125,0.0798543766140937,345.12245178222656,246.1900785991124,0.0154492867545091,45.469285745542216,44.151043937722704,1576.386375427246,267.3293209075928,812.6706790924072,53.96028333523618,372.7083587646485,232.3872184753418,847.6127815246582,1601.229476928711,230.83092212677,849.16907787323,21.19310588137242,30.846417900356837,30.50128057163995,1574.8775482177734,246.1900785991124,833.8099214008876,45.46926522479681,44.15102270362544,53.96028333513836,30.84641327025248,30.50127594590476,21.19302066541465,2007.516432768303,1143.58139983529,1.1867411282816362,0.3927521396844514,-129.1433143615723,1.5562963485718058,21.193020665414622,30.84641327025254,-3.1403838169764184,-3.297422653338255e-05,-2.168426057655726,1.5693115681312986,-1.5695600340310127,-1.5690533320340245,-1.5696099344943661,"(931, 854)"
351.2746047973633,269.47657585144043,-0.043819610029459,378.77071380615234,233.29434871673584,0.000853567442391,325.10677337646484,231.77335739135745,-0.0047200415283441,353.5853958129883,192.4024200439453,-0.0301577728241682,346.96178436279297,320.7627296447754,0.0249068364500999,293.0409049987793,239.2467212677002,0.0723819136619567,1080,403.6344528198242,243.16065788269043,0.0841237679123878,350.3392328534807,247.15954439980644,0.0147955230121234,45.44437882448554,45.8943309385545,1568.7253952026367,269.47657585144043,810.5234241485596,53.68549103918155,378.77071380615234,233.29434871673584,846.7056512832642,1594.8932266235352,231.77335739135745,848.2266426086426,22.336701842941025,31.632150651988457,29.553547042199064,1569.6607671465192,247.15954439980644,832.8404556001935,45.444356866948446,45.89431428315825,53.68549074985648,31.63214757951108,29.553540598686546,22.33662493499462,2085.639361067978,1199.152677793213,1.18134476946152,0.4160643842867848,-128.36030960083008,1.5209913253783895,22.33662493499462,31.63214757951108,-3.140461278394334,-0.00013592771591500072,-2.1775162666464976,1.5691716191626273,-1.5695616555679042,-1.5693021433918275,-1.5697592918657413,"(540, 750)"
350.6001663208008,265.5773448944092,-0.0442528873682022,377.6980209350586,230.2397918701172,0.0015695343026891,323.97300720214844,228.88595581054688,-0.0031164803076535,352.8240966796875,188.70866775512692,-0.0272125266492366,346.56349182128906,319.35765266418457,0.0231511704623699,292.33747482299805,237.0691967010498,0.0745864287018776,1080,404.3084335327149,241.00350379943848,0.0844279527664184,349.7578130449568,244.4060162135533,0.0155933131297518,44.53132019303301,45.335034221200125,1569.3998336791992,265.5773448944092,814.4226551055908,53.742069132443255,377.6980209350586,230.2397918701172,849.7602081298828,1596.0269927978516,228.88595581054688,851.1140441894531,21.18816411872133,31.32630405517131,30.09532916119479,1570.2421869550433,244.4060162135533,835.5939837864466,44.53129661754867,45.33501555788197,53.74206892814584,31.32630091617377,30.095323345401876,21.18807960042995,2018.8289248663716,1138.6912386700171,1.2068372738807447,0.3942549291443218,-130.64898490905765,1.3538360595703125,21.18807960042995,31.326300916173775,-3.1403861466183067,-0.00011762534766086425,-2.198567087722992,1.5691053302696278,-1.5694996213904007,-1.5692514239327422,-1.5696751811841154,"(677, 403)"
354.84973907470703,264.6825313568115,-0.0439117848873138,380.6616973876953,229.25711631774905,0.0038205983582884,327.6272201538086,227.95183181762692,-0.0046823346056044,355.50891876220703,187.5600528717041,-0.0262580458074808,349.93648529052734,318.3298873901367,0.0214514918625354,293.5180854797363,236.78458213806152,0.0697350725531578,1080,403.97857666015625,239.7441816329956,0.0878662914037704,352.29724611554826,243.47288336072648,0.0154316126967647,43.83171797935476,45.71882942493494,1565.150260925293,264.6825313568115,815.3174686431885,53.05053831393021,380.6616973876953,229.25711631774905,850.742883682251,1592.3727798461914,227.95183181762692,852.048168182373,21.362769250807023,31.727437075910537,29.14641704442139,1567.7027538844518,243.47288336072648,836.5271166392736,43.8316919892591,45.71881259434159,53.05053763250574,31.72743495131948,29.14641010410136,21.36268682596806,2003.934837699974,1133.3020359495106,1.2103227675376524,0.402685504767131,-130.76983451843262,1.3052845001221272,21.36268682596806,31.72743495131946,-3.1403837482362382,-0.00019008185223484447,-2.208601618482651,1.5689470936504275,-1.569448922556811,-1.569355261651727,-1.569728298255889,"(412, 323)"
341.1874771118164,264.05224800109863,-0.0448390990495681,369.8183441162109,229.48272228240967,-0.0012949905358254,316.05335235595703,228.46868991851807,0.0003618229238782,344.0668487548828,188.4426784515381,-0.0270203165709972,340.6423568725586,318.6532402038574,0.0226723868399858,289.35401916503906,237.6011037826538,0.0824125930666923,1080,401.82716369628906,240.2135467529297,0.0789786353707313,343.2785088675363,243.8448899132865,0.0158958617206995,44.88630693126593,43.56507633624478,1578.8125228881836,264.05224800109863,815.9477519989014,53.77455349289495,369.8183441162109,229.48272228240967,850.5172777175903,1603.946647644043,228.46868991851807,851.5313100814819,20.315349453749384,30.17672960427622,31.267185908959963,1576.7214911324636,243.8448899132865,836.1551100867135,44.88628581023858,43.565052887142095,53.77455346737144,30.176724707698146,31.267182050180075,20.315258666640094,1955.4753879127134,1092.4439638912356,1.1980166155142449,0.3777856545376566,-130.21056175231934,1.0140323638916016,20.315258666640098,30.176724707698092,-3.140327288159551,6.950451679733582e-06,-2.185765307039052,1.5692754481245614,-1.5695367178017376,-1.5689979401917038,-1.5695260519798682,"(1263, 414)"
355.4174041748047,264.96076583862305,-0.0439247004687786,382.2179412841797,228.8557004928589,0.0038175343070179,329.0782165527344,227.94806957244876,-0.0045674415305256,356.1673355102539,187.84984588623047,-0.0259652473032474,350.3982162475586,318.4383773803711,0.0213944036513566,293.8236618041992,236.9067478179932,0.069826066493988,1080,404.8638153076172,239.83540534973145,0.0877014994621276,353.1380844116211,243.5421303340367,0.0154688735159912,44.96495093174092,45.42789934034511,1564.5825958251953,264.96076583862305,815.039234161377,53.14747603347957,382.2179412841797,228.8557004928589,851.1442995071411,1590.9217834472656,227.94806957244876,852.0519304275513,21.53965582496148,32.5780513990944,28.67145573348358,1566.861915588379,243.5421303340367,836.4578696659632,44.96492558620426,45.42788229141544,53.14747537203875,32.57804931557952,28.67144873254904,21.53957393871026,2042.6632647706836,1144.7739896789647,1.1819753633092245,0.4052792624121804,-130.58853149414062,0.9076309204101278,21.53957393871026,32.57804931557952,-3.1404025559168267,-0.00017811795297468044,-2.18928226608705,1.5690149377100415,-1.5694740135268657,-1.5693020806468738,-1.5697329823732569,"(52, 177)"
344.7318649291992,268.2679080963135,-0.0443513579666614,371.90311431884766,233.0588722229004,-0.0014440516242757,317.87622451782227,232.0424652099609,-0.0025160410441458,347.2690963745117,192.30495929718015,-0.0306270103901624,342.4547576904297,321.01155281066895,0.0257137548178434,290.2206039428711,239.7897434234619,0.0781437531113624,1080,401.9078826904297,242.7323627471924,0.0803414136171341,345.1947920663016,247.02969482966836,0.0150372086458706,44.47420422634561,45.09445514041959,1575.2681350708008,268.2679080963135,811.7320919036865,54.03644979027818,371.90311431884766,233.0588722229004,846.9411277770996,1602.1237754821775,232.0424652099609,847.9575347900391,21.24334086944923,30.141642846526548,31.159613166585327,1574.8052079336985,247.02969482966836,832.9703051703317,44.4741835285344,45.09443573455125,54.036449779644975,30.14163834060161,31.15960822241934,21.24325785499408,2005.5400073908015,1147.9102364633202,1.2150062846589451,0.39312823115062767,-128.7065935134888,1.0164070129394815,21.243257854994052,30.141638340601624,-3.1404065417826965,-4.215605875192157e-05,-2.2087367784719794,1.5692171844425806,-1.56957768265888,-1.5692385429386482,-1.569641467254458,"(1241, 973)"
